{"monday":[{"name":"something","day":"Monday","event":"something","start":"2:4 PM","end":"10:4 PM","location":"awe","info":"123","url":"http://google.com","phone":"1231231111"},{"name":"something","day":"Monday","event":"something","start":"5:4 AM","end":"6:4 AM","location":"awe","info":"123","url":"http://google.com","phone":"1231231111"},{"name":"mon1","day":"Monday","event":"mon1","start":"6:56 AM","end":"7:56 AM","location":"123","info":"123","url":"http://google.com","phone":"1231231232"},{"name":"mon1","day":"Monday","event":"mon1","start":"9:56 AM","end":"11:56 AM","location":"123","info":"123","url":"http://google.com","phone":"1231231232"},{"name":"Csci 4131 Lecture","start":"11:15 AM","end":"12:30 PM","phone":"See Class information on Canvas","location":"105 Tate Hall","info":"CSci 4131 Info","url":"https://onestop2.umn.edu/pcas/viewCatalogCourse.do?courseId=790654"}],"tuesday":[{"name":"test","day":"Tuesday","event":"test","start":"5:06 AM","end":"11:07 PM","location":"123","info":"123","url":"http://google.com","phone":"1231231234"},{"name":"test","day":"Tuesday","event":"test","start":"8:06 AM","end":"11:07 AM","location":"123","info":"123","url":"http://google.com","phone":"1231231234"},{"name":"test","day":"Tuesday","event":"test","start":"10:06 AM","end":"11:07 AM","location":"123","info":"123","url":"http://google.com","phone":"1231231234"},{"name":"test","day":"Tuesday","event":"test","start":"11:06 AM","end":"11:07 AM","location":"123","info":"123","url":"http://google.com","phone":"1231231234"},{"name":"test","day":"Tuesday","event":"test","start":"11:06 AM","end":"11:07 AM","location":"123","info":"123","url":"http://google.com","phone":"1231231234"}],"wednesday":[{"name":"CSci 4131 Lecture","start":"11:15","end":"12:30","phone":"See Class information on Canvas","location":"105 Tate Hall","info":"CSci 4131 Info","url":"https://onestop2.umn.edu/pcas/viewCatalogCourse.do?courseId=790654"}],"thursday":[],"friday":[],"saturday":[],"sunday":[]}